{
  "login": {
    "token": "1234567890"
  },
  "logout": {},
  "user": {
    "id": 1,
    "image": null,
    "phone": "58928962898",
    "name": "Beltrano de tal",
    "email": "beltrano@belcom",
    "group": "GOS - IPMT",
    "group_id": 1,
    "address": {
        "id": 1,
        "description": "Casa",
        "number": "252",
        "complement": "",
        "zipcode": "64057-650",
        "district": "Vale Quem Tem",
        "street": "Rua Professora Maria Célia Nascimento",
        "city": {
            "id": "3186",
            "name_state": "Teresina - PI"
        }
    }
},
  "passwordreset": {},
  "demands": [
  {
    "id": "1",
    "title": "Muito lixo",
    "description": "Dasjknda sdkajsdaksjd asjd asd  das fd fasdf  skjd kas d",
    "image": "~/assets/images/lixo.jpg",
    "due_date": "25/02/2020",
    "solved": "false",
    "responsibles": ["2","3"],
    "user_id": "1",
    "groups": ["GOS - IPMT","GEAC","IPMT"],
    "latitude": 1.68282,
    "longitude": -0.78965,
    "number": "252",
    "complement": "",
    "zipcode": "64057-650",
    "district": "Vale Quem Tem",
    "street": "Rua Professora Maria Célia Nascimento",
    "city": "Teresina",
    "state": "PI"
  },
  {
    "id": "2",
    "title": "Bueiro quebrado",
    "description": "Dasjknda sdkajsdaksjd asjd askjd kas d",
    "image": "~/assets/images/bueiro.jpeg",
    "due_date": "25/02/2020",
    "solved": "false",
    "responsibles": ["2","3"],
    "user_id": "1",
    "groups": ["GOS - IPMT","GEAC","IPMT"],
    "latitude": 1.68282,
    "longitude": -0.78965,
    "number": "252",
    "complement": "",
    "zipcode": "64057-650",
    "district": "Vale Quem Tem",
    "street": "Rua Professora Maria Célia Nascimento",
    "city": "Teresina",
    "state": "PI"
  },
  {
    "id": "3",
    "title": "Obras mal sinalizada",
    "description": "Dasjknda sdkajsdaksjd asjd askjd kas d",
    "image": "~/assets/images/obras.jpg",
    "due_date": "25/02/2020",
    "solved": "false",
    "responsibles": ["2","3"],
    "user_id": "1",
    "groups": ["GOS - IPMT","GEAC","IPMT"],
    "latitude": 1.68282,
    "longitude": -0.78965,
    "number": "252",
    "complement": "",
    "zipcode": "64057-650",
    "district": "Vale Quem Tem",
    "street": "Rua Professora Maria Célia Nascimento",
    "city": "Teresina",
    "state": "PI"
  },
  {
    "id": "4",
    "title": "Rua limpa",
    "description": "Dasjknda sdkajsdaksjd asjd askjd kas d",
    "image": "~/assets/images/rua.jpg",
    "due_date": "25/02/2020",
    "solved": "false",
    "responsibles": ["2","3"],
    "user_id": "1",
    "groups": ["GOS - IPMT","GEAC","IPMT"],
    "latitude": 1.68282,
    "longitude": -0.78965,
    "number": "252",
    "complement": "",
    "zipcode": "64057-650",
    "district": "Vale Quem Tem",
    "street": "Rua Professora Maria Célia Nascimento",
    "city": "Teresina",
    "state": "PI"
  }
]
}
